$GPTXT,01,01,02,u-blox ag - www.u-blox.com*50

$GPTXT,01,01,02,HW  UBX-G70xx   00070000 FF7FFFFFo*69

$GPTXT,01,01,02,ROM CORE 1.00 (59842) Jun 27 2012 17:43:52*59

$GPTXT,01,01,02,PROTVER 14.00*1E

$GPTXT,01,01,02,ANTSUPERV=AC SD PDoS SR*20

$GPTXT,01,01,02,ANTSTATUS=OK*3B

$GPTXT,01,01,02,LLC FFFFFFFF-FFFFFFFF-FFFFFFFF-FFFFFFFF-FFFFFFFD*2C

$GPRMC,195452.00,A,3552.08973,N,07839.90423,W,0.353,,261219,,,A*6B

$GPVTG,,T,,M,0.353,N,0.654,K,A*21

$GPGGA,195452.00,3552.08973,N,07839.90423,W,1,07,1.50,128.3,M,-34.4,M,,*68

$GPGSA,A,3,31,32,26,03,14,22,29,,,,,,2.49,1.50,1.98*03

$GPGSV,3,1,12,01,01,252,,03,36,301,16,04,14,307,,14,62,089,28*71

$GPGSV,3,2,12,16,36,195,,22,45,273,20,23,09,307,,25,14,041,13*78

$GPGSV,3,3,12,26,65,181,16,29,16,075,30,31,61,025,28,32,36,114,28*7D

$GPGLL,3552.08973,N,07839.90423,W,195452.00,A,A*78

$GPRMC,195453.00,A,3552.08962,N,07839.90426,W,0.327,,261219,,,A*6C

$GPVTG,,T,,M,0.327,N,0.606,K,A*25

$GPGGA,195453.00,3552.08962,N,07839.90426,W,1,07,1.50,128.6,M,-34.4,M,,*69

$GPGSA,A,3,31,32,26,03,14,22,29,,,,,,2.49,1.50,1.98*03

$GPGSV,3,1,12,01,01,252,,03,36,301,16,04,14,307,,14,62,089,28*71

$GPGSV,3,2,12,16,36,195,19,22,45,273,20,23,09,307,,25,14,041,12*71

$GPGSV,3,3,12,26,65,181,16,29,16,075,31,31,61,025,28,32,36,114,28*7C

$GPGLL,3552.08973,N,07839.90423,W,195453.00,A,A*78

$GPRMC,195454.00,A,3552.08969,N,07839.90359,W,0.237,,261219,,,A*6F

$GPVTG,,T,,M,0.237,N,0.440,K,A*25

$GPGGA,195454.00,3552.08969,N,07839.90359,W,1,07,1.50,129.9,M,-34.4,M,,*64

$GPGSA,A,3,31,32,26,03,14,22,29,,,,,,2.49,1.50,1.99*02

$GPGSV,3,1,12,01,01,252,,03,36,301,17,04,14,307,,14,62,089,28*70

$GPGSV,3,2,12,16,36,195,17,22,45,273,20,23,09,307,,25,14,041,10*7D

$GPGSV,3,3,12,26,65,181,15,29,16,075,31,31,61,025,29,32,36,114,28*7E

$GPGLL,3552.08973,N,07839.90423,W,195454.00,A,A*78

$GPRMC,195455.00,A,3552.08979,N,07839.90301,W,0.058,,261219,,,A*69

$GPVTG,,T,,M,0.058,N,0.108,K,A*27

$GPGGA,195455.00,3552.08979,N,07839.90301,W,1,07,1.50,130.8,M,-34.4,M,,*60

$GPGSA,A,3,31,32,26,03,14,22,29,,,,,,2.49,1.50,1.99*02

$GPGSV,3,1,12,01,01,252,,03,36,301,16,04,14,307,,14,62,089,28*71

$GPGSV,3,2,12,16,36,195,15,22,45,273,20,23,09,307,,25,14,041,09*77

$GPGSV,3,3,12,26,65,181,15,29,16,075,31,31,61,025,29,32,36,114,28*7E

$GPGLL,3552.08973,N,07839.90423,W,195455.00,A,A*78

$GPRMC,195456.00,A,3552.08968,N,07839.90312,W,0.414,,261219,,,A*64

$GPVTG,,T,,M,0.414,N,0.767,K,A*24

$GPGGA,195456.00,3552.08968,N,07839.90312,W,1,07,1.50,130.7,M,-34.4,M,,*6E

$GPGSA,A,3,31,32,26,03,14,22,29,,,,,,2.49,1.50,1.99*02

$GPGSV,3,1,12,01,01,252,,03,36,301,14,04,14,307,,14,62,089,28*73

$GPGSV,3,2,12,16,36,195,14,22,45,273,19,23,09,307,,25,14,041,09*7C

$GPGSV,3,3,12,26,65,181,14,29,16,075,31,31,61,025,29,32,36,114,28*7F

$GPGLL,3552.08973,N,07839.90423,W,195452.00,A,A*78

$GPRMC,195457.00,A,3552.08965,N,07839.90317,W,0.311,,261219,,,A*6F

$GPVTG,,T,,M,0.311,N,0.575,K,A*27

$GPGGA,195457.00,3552.08965,N,07839.90317,W,1,07,1.50,130.6,M,-34.4,M,,*66

$GPGSA,A,3,31,32,26,03,14,22,29,,,,,,2.49,1.50,1.99*02

$GPGSV,3,1,12,01,01,252,,03,36,301,13,04,14,307,,14,62,089,29*75

$GPGSV,3,2,12,16,36,195,12,22,45,273,19,23,09,307,,25,14,041,09*7A

$GPGSV,3,3,12,26,65,181,13,29,16,075,31,31,61,025,29,32,36,114,28*78

$GPGLL,3552.08973,N,07839.90423,W,195452.00,A,A*78

$GPRMC,195458.00,A,3552.08968,N,07839.90291,W,0.057,,261219,,,A*63

$GPVTG,,T,,M,0.057,N,0.106,K,A*26

$GPGGA,195458.00,3552.08968,N,07839.90291,W,1,06,1.81,131.1,M,-34.4,M,,*60

$GPGSA,A,3,31,32,03,14,22,29,,,,,,,2.74,1.81,2.06*01

$GPGSV,3,1,12,01,01,252,,03,36,301,15,04,14,307,,14,62,089,29*73

$GPGSV,3,2,12,16,36,195,11,22,45,273,17,23,09,307,,25,14,041,09*77

$GPGSV,3,3,12,26,65,181,10,29,16,075,31,31,61,025,29,32,36,114,28*7B

$GPGLL,3552.08973,N,07839.90423,W,195452.00,A,A*78

$GPRMC,195459.00,A,3552.08960,N,07839.90284,W,0.054,,261219,,,A*6D

$GPVTG,,T,,M,0.054,N,0.100,K,A*23

$GPGGA,195459.00,3552.08960,N,07839.90284,W,1,06,1.81,131.1,M,-34.4,M,,*6D

$GPGSA,A,3,31,32,03,14,22,29,,,,,,,2.74,1.81,2.06*01

$GPGSV,3,1,12,01,01,252,,03,36,301,14,04,14,307,,14,62,089,29*72

$GPGSV,3,2,12,16,36,195,,22,45,273,17,23,09,307,,25,14,041,09*77

$GPGSV,3,3,12,26,65,181,09,29,16,075,30,31,61,025,29,32,36,114,28*72

$GPGLL,3552.08973,N,07839.90423,W,195452.00,A,A*78

$GPRMC,195500.00,A,3552.08957,N,07839.90298,W,0.263,,261219,,,A*6F

$GPVTG,,T,,M,0.263,N,0.487,K,A*2F

$GPGGA,195500.00,3552.08957,N,07839.90298,W,1,07,1.50,130.9,M,-34.4,M,,*6D

$GPGSA,A,3,31,32,26,03,14,22,29,,,,,,2.49,1.50,1.99*02

$GPGSV,3,1,12,01,01,252,,03,36,301,12,04,14,307,,14,62,089,29*74

$GPGSV,3,2,12,16,36,195,17,22,45,273,17,23,09,307,,25,14,041,09*71

$GPGSV,3,3,12,26,65,181,10,29,16,075,30,31,61,025,29,32,36,114,28*7A

$GPGLL,3552.08973,N,07839.90423,W,195452.00,A,A*78

$GPRMC,195501.00,A,3552.08956,N,07839.90263,W,0.242,,261219,,,A*68

$GPVTG,,T,,M,0.242,N,0.448,K,A*2F

$GPGGA,195501.00,3552.08956,N,07839.90263,W,1,07,1.50,131.5,M,-34.4,M,,*64

$GPGSA,A,3,31,32,26,03,14,22,29,,,,,,2.49,1.50,1.99*02

$GPGSV,3,1,12,01,01,252,,03,36,301,15,04,14,307,,14,62,089,29*73

$GPGSV,3,2,12,16,36,195,18,22,45,273,16,23,09,307,,25,14,041,08*7E

$GPGSV,3,3,12,26,65,181,11,29,16,075,30,31,61,025,29,32,36,114,27*74

$GPGLL,3552.08973,N,07839.90423,W,195452.00,A,A*78

$GPRMC,195502.00,A,3552.08952,N,07839.90270,W,0.248,,261219,,,A*67

$GPVTG,,T,,M,0.248,N,0.460,K,A*2F

$GPGGA,195502.00,3552.08952,N,07839.90270,W,1,07,1.50,131.5,M,-34.4,M,,*61

$GPGSA,A,3,31,32,26,03,14,22,29,,,,,,2.49,1.50,1.99*02

$GPGSV,3,1,12,01,01,252,,03,36,301,15,04,14,307,,14,62,089,29*73

$GPGSV,3,2,12,16,36,195,17,22,45,273,13,23,09,307,,25,14,041,07*7B

$GPGSV,3,3,12,26,65,181,12,29,16,075,30,31,61,025,29,32,36,114,27*77

$GPGLL,3552.08973,N,07839.90423,W,195452.00,A,A*78

$GPRMC,195503.00,A,3552.08950,N,07839.90275,W,0.017,,261219,,,A*69

$GPVTG,,T,,M,0.017,N,0.031,K,A*27

$GPGGA,195503.00,3552.08950,N,07839.90275,W,1,07,1.50,131.4,M,-34.4,M,,*66

$GPGSA,A,3,31,32,26,03,14,22,29,,,,,,2.49,1.50,1.99*02

$GPGSV,3,1,12,01,01,252,,03,36,301,13,04,14,307,,14,62,089,29*75

$GPGSV,3,2,12,16,36,195,17,22,45,273,12,23,09,307,,25,14,041,07*7A

$GPGSV,3,3,12,26,65,181,12,29,16,075,30,31,61,025,29,32,36,114,27*77

$GPGLL,3552.08973,N,07839.90423,W,195452.00,A,A*78

$GPRMC,195504.00,A,3552.08961,N,07839.90239,W,0.033,,261219,,,A*62

$GPVTG,,T,,M,0.033,N,0.062,K,A*27

$GPGGA,195504.00,3552.08961,N,07839.90239,W,1,07,1.50,132.0,M,-34.4,M,,*6C

$GPGSA,A,3,31,32,26,03,14,22,29,,,,,,2.49,1.50,1.99*02

$GPGSV,3,1,12,01,01,252,,03,36,301,11,04,14,307,,14,62,089,29*77

$GPGSV,3,2,12,16,37,195,18,22,45,273,10,23,09,307,,25,14,041,*71

$GPGSV,3,3,12,26,65,181,11,29,16,075,30,31,61,025,29,32,36,114,27*74

$GPGLL,3552.08973,N,07839.90423,W,195452.00,A,A*78

$GPRMC,195505.00,A,3552.08960,N,07839.90236,W,0.328,,261219,,,A*64

$GPVTG,,T,,M,0.328,N,0.608,K,A*24

$GPGGA,195505.00,3552.08960,N,07839.90236,W,1,07,1.50,131.9,M,-34.4,M,,*69

$GPGSA,A,3,31,32,26,03,14,22,29,,,,,,2.49,1.50,1.99*02

$GPGSV,3,1,12,01,01,252,,03,36,301,11,04,14,307,,14,62,089,29*77

$GPGSV,3,2,12,16,37,195,18,22,45,273,11,23,09,307,,25,14,041,*70

$GPGSV,3,3,12,26,65,181,10,29,16,075,30,31,61,025,28,32,36,114,27*74

$GPGLL,3552.08973,N,07839.90423,W,195452.00,A,A*78

$GPRMC,195506.00,A,3552.08951,N,07839.90242,W,0.213,,261219,,,A*6F

$GPVTG,,T,,M,0.213,N,0.394,K,A*2D

$GPGGA,195506.00,3552.08951,N,07839.90242,W,1,06,1.81,131.9,M,-34.4,M,,*66

$GPGSA,A,3,31,32,03,14,22,29,,,,,,,2.74,1.81,2.06*01

$GPGSV,3,1,12,01,01,252,,03,36,301,10,04,14,307,,14,62,089,30*7E

$GPGSV,3,2,12,16,37,195,19,22,45,273,13,23,09,307,,25,14,041,*73

$GPGSV,3,3,12,26,65,181,09,29,16,075,30,31,61,025,28,32,36,114,28*73

$GPGLL,3552.08973,N,07839.90423,W,195452.00,A,A*78

$GPRMC,195507.00,A,3552.08941,N,07839.90263,W,0.118,,261219,,,A*64

$GPVTG,,T,,M,0.118,N,0.219,K,A*21

$GPGGA,195507.00,3552.08941,N,07839.90263,W,1,05,1.98,131.6,M,-34.4,M,,*61

$GPGSA,A,3,31,32,14,22,29,,,,,,,,2.99,1.98,2.25*08

$GPGSV,3,1,12,01,01,252,,03,36,301,09,04,14,307,,14,62,089,30*76

$GPGSV,3,2,12,16,37,195,19,22,45,273,15,23,09,307,,25,14,041,*75

$GPGSV,3,3,12,26,65,181,10,29,16,075,30,31,61,025,28,32,36,114,29*7A

$GPGLL,3552.08973,N,07839.90423,W,195452.00,A,A*78

$GPRMC,195508.00,A,3552.08949,N,07839.90236,W,0.054,,261219,,,A*6A

$GPVTG,,T,,M,0.054,N,0.100,K,A*23

$GPGGA,195508.00,3552.08949,N,07839.90236,W,1,05,1.98,131.8,M,-34.4,M,,*68

$GPGSA,A,3,31,32,14,22,29,,,,,,,,2.99,1.98,2.25*08

$GPGSV,3,1,12,01,01,252,,03,36,301,08,04,14,307,,14,62,089,29*7F

$GPGSV,3,2,12,16,37,195,19,22,45,273,17,23,09,307,,25,14,041,*77

$GPGSV,3,3,12,26,65,181,08,29,16,075,30,31,61,025,27,32,36,114,29*7C

$GPGLL,3552.08973,N,07839.90423,W,195452.00,A,A*78

$GPRMC,195509.00,A,3552.08957,N,07839.90217,W,0.197,,261219,,,A*69

$GPVTG,,T,,M,0.197,N,0.364,K,A*2D

$GPGGA,195509.00,3552.08957,N,07839.90217,W,1,05,1.98,132.1,M,-34.4,M,,*6F

$GPGSA,A,3,31,32,14,22,29,,,,,,,,2.99,1.98,2.25*08

$GPGSV,3,1,12,01,01,252,,03,36,301,08,04,14,307,,14,62,089,29*7F

$GPGSV,3,2,12,16,37,195,20,22,45,273,17,23,09,307,,25,14,041,*7D

$GPGSV,3,3,12,26,65,181,07,29,16,075,30,31,61,025,27,32,36,114,29*73

$GPGLL,3552.08973,N,07839.90423,W,195452.00,A,A*78

$GPRMC,195510.00,A,3552.08965,N,07839.90197,W,0.439,,261219,,,A*6A

$GPVTG,,T,,M,0.439,N,0.814,K,A*20

$GPGGA,195510.00,3552.08965,N,07839.90197,W,1,05,1.98,132.4,M,-34.4,M,,*68

$GPGSA,A,3,31,32,14,22,29,,,,,,,,2.99,1.98,2.25*08

$GPGSV,3,1,12,01,01,252,,03,36,301,08,04,14,307,,14,62,089,29*7F

$GPGSV,3,2,12,16,37,195,20,22,45,273,19,23,09,307,,25,14,041,*73

$GPGSV,3,3,12,26,65,181,07,29,16,075,30,31,61,025,27,32,36,114,29*73

$GPGLL,3552.08973,N,07839.90423,W,195452.00,A,A*78

$GPRMC,195511.00,A,3552.08975,N,07839.90174,W,0.170,,261219,,,A*6F

$GPVTG,,T,,M,0.170,N,0.315,K,A*22

$GPGGA,195511.00,3552.08975,N,07839.90174,W,1,05,1.98,132.8,M,-34.4,M,,*69

$GPGSA,A,3,31,32,14,22,29,,,,,,,,2.99,1.98,2.25*08

$GPGSV,3,1,12,01,01,252,,03,36,301,08,04,14,307,,14,62,089,29*7F

$GPGSV,3,2,12,16,37,195,21,22,45,273,19,23,09,307,,25,14,041,04*76

$GPGSV,3,3,12,26,65,181,07,29,16,075,31,31,61,025,27,32,36,114,30*7A

$GPGLL,3552.08973,N,07839.90423,W,195452.00,A,A*78

$GPRMC,195512.00,A,3552.08990,N,07839.90143,W,0.220,,261219,,,A*65

$GPVTG,,T,,M,0.220,N,0.408,K,A*2F

$GPGGA,195512.00,3552.08990,N,07839.90143,W,1,05,1.98,133.3,M,-34.4,M,,*6F

$GPGSA,A,3,31,32,14,22,29,,,,,,,,2.99,1.98,2.25*08

$GPGSV,3,1,12,01,01,252,,03,36,301,08,04,14,307,,14,62,089,29*7F

$GPGSV,3,2,12,16,37,195,22,22,45,273,20,23,09,307,,25,14,041,08*73

$GPGSV,3,3,12,26,65,181,07,29,16,075,30,31,61,025,28,32,36,114,31*75

$GPGLL,3552.08973,N,07839.90423,W,195452.00,A,A*78

$GPRMC,195513.00,A,3552.09003,N,07839.90088,W,0.122,,261219,,,A*61

$GPVTG,,T,,M,0.122,N,0.226,K,A*24

$GPGGA,195513.00,3552.09003,N,07839.90088,W,1,05,1.97,134.1,M,-34.4,M,,*60

$GPGSA,A,3,31,32,14,22,29,,,,,,,,2.99,1.97,2.25*07

$GPGSV,3,1,12,01,01,252,,03,36,301,08,04,14,307,,14,62,089,29*7F

$GPGSV,3,2,12,16,37,195,23,22,45,273,21,23,09,307,,25,14,041,11*7B

$GPGSV,3,3,12,26,66,181,,29,16,075,30,31,61,025,28,32,36,114,31*71

$GPGLL,3552.08973,N,07839.90423,W,195452.00,A,A*78

$GPRMC,195514.00,A,3552.09005,N,07839.90076,W,0.345,,261219,,,A*62

$GPVTG,,T,,M,0.345,N,0.638,K,A*2C

$GPGGA,195514.00,3552.09005,N,07839.90076,W,1,05,1.97,134.3,M,-34.4,M,,*62

$GPGSA,A,3,31,32,14,22,29,,,,,,,,2.99,1.97,2.25*07

$GPGSV,3,1,12,01,01,252,,03,36,301,08,04,14,307,,14,62,089,29*7F

$GPGSV,3,2,12,16,37,195,23,22,45,273,22,23,09,307,,25,14,041,12*7B

$GPGSV,3,3,12,26,66,181,,29,16,075,31,31,61,025,29,32,36,114,31*71

$GPGLL,3552.08973,N,07839.90423,W,195452.00,A,A*78

$GPRMC,195515.00,A,3552.09002,N,07839.90064,W,0.329,,261219,,,A*6D

$GPVTG,,T,,M,0.329,N,0.609,K,A*24

$GPGGA,195515.00,3552.09002,N,07839.90064,W,1,05,1.97,134.4,M,-34.4,M,,*60

$GPGSA,A,3,31,32,14,22,29,,,,,,,,2.99,1.97,2.25*07

$GPGSV,3,1,12,01,01,252,,03,36,301,08,04,14,307,,14,62,089,28*7E

$GPGSV,3,2,12,16,37,195,24,22,45,273,22,23,09,307,,25,14,041,11*7F

$GPGSV,3,3,12,26,66,181,06,29,16,075,31,31,61,025,29,32,36,114,31*77

$GPGLL,3552.08973,N,07839.90423,W,195452.00,A,A*78

$GPRMC,195516.00,A,3552.08996,N,07839.90069,W,0.191,,261219,,,A*67

$GPVTG,,T,,M,0.191,N,0.353,K,A*2F

$GPGGA,195516.00,3552.08996,N,07839.90069,W,1,06,1.60,134.2,M,-34.4,M,,*66

$GPGSA,A,3,31,25,32,14,22,29,,,,,,,2.55,1.60,1.98*0D

$GPGSV,3,1,12,01,01,252,,03,36,301,08,04,14,307,,14,62,089,28*7E

$GPGSV,3,2,12,16,37,195,24,22,45,273,22,23,09,307,,25,14,041,13*7D

$GPGSV,3,3,12,26,66,181,08,29,16,075,31,31,61,025,30,32,36,114,31*71

$GPGLL,3552.08973,N,07839.90423,W,195452.00,A,A*78

$GPRMC,195517.00,A,3552.08997,N,07839.90048,W,0.260,,261219,,,A*69

$GPVTG,,T,,M,0.260,N,0.482,K,A*29

$GPGGA,195517.00,3552.08997,N,07839.90048,W,1,06,1.60,134.5,M,-34.4,M,,*62

$GPGSA,A,3,31,25,32,14,22,29,,,,,,,2.55,1.60,1.98*0D

$GPGSV,3,1,12,01,01,252,,03,36,301,08,04,14,307,18,14,62,089,29*76

$GPGSV,3,2,12,16,37,195,25,22,45,273,23,23,09,307,,25,14,041,14*7A

$GPGSV,3,3,12,26,66,181,13,29,16,075,31,31,61,025,30,32,36,114,32*78

$GPGLL,3552.08973,N,07839.90423,W,195452.00,A,A*78

$GPRMC,195518.00,A,3552.09009,N,07839.89999,W,0.064,,261219,,,A*62

$GPVTG,,T,,M,0.064,N,0.118,K,A*29

$GPGGA,195518.00,3552.09009,N,07839.89999,W,1,06,1.60,135.2,M,-34.4,M,,*69

$GPGSA,A,3,31,25,32,14,22,29,,,,,,,2.55,1.60,1.98*0D

$GPGSV,3,1,12,01,01,252,,03,36,301,08,04,14,307,16,14,62,089,29*78

$GPGSV,3,2,12,16,37,195,25,22,45,273,23,23,09,307,,25,14,041,13*7D

$GPGSV,3,3,12,26,66,181,16,29,16,075,31,31,61,026,31,32,36,114,32*7F

$GPGLL,3552.08973,N,07839.90423,W,195452.00,A,A*78

$GPRMC,195519.00,A,3552.09023,N,07839.89984,W,0.195,,261219,,,A*68

$GPVTG,,T,,M,0.195,N,0.362,K,A*29

$GPGGA,195519.00,3552.09023,N,07839.89984,W,1,07,1.48,134.9,M,-34.4,M,,*6D

$GPGSA,A,3,31,25,32,26,14,22,29,,,,,,2.47,1.48,1.97*0F

$GPGSV,3,1,12,01,01,252,,03,36,301,08,04,14,307,13,14,62,089,29*7D

$GPGSV,3,2,12,16,37,195,26,22,45,273,24,23,09,307,,25,14,041,13*79

$GPGSV,3,3,12,26,66,181,19,29,16,075,31,31,61,026,31,32,36,114,32*70

$GPGLL,3552.08973,N,07839.90423,W,195452.00,A,A*78

$GPRMC,195520.00,A,3552.09030,N,07839.89971,W,0.018,,261219,,,A*6E

$GPVTG,,T,,M,0.018,N,0.032,K,A*2B

$GPGGA,195520.00,3552.09030,N,07839.89971,W,1,07,1.48,134.8,M,-34.4,M,,*6E

$GPGSA,A,3,31,25,32,26,14,22,29,,,,,,2.47,1.48,1.97*0F

$GPGSV,3,1,12,01,01,252,,03,36,301,07,04,14,307,09,14,62,089,30*71

$GPGSV,3,2,12,16,37,195,26,22,45,273,24,23,09,307,,25,14,041,14*7E

$GPGSV,3,3,12,26,66,181,21,29,16,075,31,31,61,026,31,32,36,114,33*7A

$GPGLL,3552.08973,N,07839.90423,W,195452.00,A,A*78

$GPRMC,195521.00,A,3552.09032,N,07839.89980,W,0.079,,261219,,,A*64

$GPVTG,,T,,M,0.079,N,0.147,K,A*2F

$GPGGA,195521.00,3552.09032,N,07839.89980,W,1,07,1.48,134.7,M,-34.4,M,,*6C

$GPGSA,A,3,31,25,32,26,14,22,29,,,,,,2.47,1.48,1.97*0F

$GPGSV,3,1,12,01,01,252,,03,36,301,07,04,14,307,08,14,62,089,30*70

$GPGSV,3,2,12,16,37,195,25,22,45,273,24,23,09,307,,25,14,041,14*7D

$GPGSV,3,3,12,26,66,181,22,29,16,075,32,31,61,026,31,32,36,114,33*7A

$GPGLL,3552.08973,N,07839.90423,W,195452.00,A,A*78

$GPRMC,195522.00,A,3552.09029,N,07839.90000,W,0.048,,261219,,,A*66

$GPVTG,,T,,M,0.048,N,0.090,K,A*26

$GPGGA,195522.00,3552.09029,N,07839.90000,W,1,08,1.48,133.9,M,-34.4,M,,*6A

$GPGSA,A,3,31,25,32,26,03,14,22,29,,,,,2.47,1.48,1.97*0C

$GPGSV,3,1,12,01,01,252,,03,36,301,07,04,14,307,08,14,62,089,31*71

$GPGSV,3,2,12,16,37,195,25,22,45,273,24,23,09,307,,25,14,041,13*7A

$GPGSV,3,3,12,26,66,181,22,29,16,075,32,31,61,026,31,32,36,114,33*7A

$GPGLL,3552.08973,N,07839.90423,W,195452.00,A,A*78

$GPRMC,195523.00,A,3552.09022,N,07839.90011,W,0.124,,261219,,,A*67

$GPVTG,,T,,M,0.124,N,0.229,K,A*2D

$GPGGA,195523.00,3552.09022,N,07839.90011,W,1,08,1.36,133.2,M,-34.4,M,,*62

$GPGSA,A,3,31,25,32,26,03,14,22,29,,,,,2.34,1.36,1.90*06

$GPGSV,3,1,12,01,01,252,,03,36,301,07,04,14,307,08,14,62,089,31*71

$GPGSV,3,2,12,16,37,195,24,22,45,273,23,23,09,307,,25,14,041,12*7D

$GPGSV,3,3,12,26,66,181,23,29,16,075,32,31,61,026,32,32,36,114,33*78

$GPGLL,3552.08973,N,07839.90423,W,195452.00,A,A*78

$GPRMC,195524.00,A,3552.09013,N,07839.90037,W,0.215,,261219,,,A*67

$GPVTG,,T,,M,0.215,N,0.398,K,A*27

$GPGGA,195524.00,3552.09013,N,07839.90037,W,1,08,1.36,132.5,M,-34.4,M,,*65

$GPGSA,A,3,31,25,32,26,03,14,22,29,,,,,2.34,1.36,1.90*06

$GPGSV,3,1,12,01,01,252,,03,36,301,07,04,14,307,08,14,62,089,31*71

$GPGSV,3,2,12,16,37,195,23,22,45,273,23,23,09,307,,25,14,041,12*7A

$GPGSV,3,3,12,26,66,181,23,29,16,075,32,31,61,026,31,32,36,114,34*7C

$GPGLL,3552.08973,N,07839.90423,W,195452.00,A,A*78

$GPRMC,195525.00,A,3552.08995,N,07839.90088,W,0.335,,261219,,,A*67

$GPVTG,,T,,M,0.335,N,0.621,K,A*23

$GPGGA,195525.00,3552.08995,N,07839.90088,W,1,08,1.36,131.5,M,-34.4,M,,*65

$GPGSA,A,3,31,25,32,26,03,14,22,29,,,,,2.34,1.36,1.90*06

$GPGSV,3,1,12,01,01,252,,03,36,301,07,04,14,307,08,14,62,089,31*71

$GPGSV,3,2,12,16,37,195,22,22,45,273,21,23,09,307,,25,14,041,11*7A

$GPGSV,3,3,12,26,66,181,23,29,16,075,32,31,61,026,31,32,36,114,34*7C

$GPGLL,3552.08973,N,07839.90423,W,195452.00,A,A*78

$GPRMC,195526.00,A,3552.08992,N,07839.90104,W,0.111,,261219,,,A*62

$GPVTG,,T,,M,0.111,N,0.205,K,A*25

$GPGGA,195526.00,3552.08992,N,07839.90104,W,1,08,1.36,131.2,M,-34.4,M,,*63

$GPGSA,A,3,31,25,32,26,03,14,22,29,,,,,2.34,1.36,1.90*06

$GPGSV,3,1,12,01,01,252,,03,36,301,12,04,14,307,07,14,62,089,31*7A

$GPGSV,3,2,12,16,37,195,21,22,45,273,21,23,09,307,,25,14,041,11*79

$GPGSV,3,3,12,26,66,181,22,29,16,075,32,31,61,026,31,32,36,114,34*7D

$GPGLL,3552.08973,N,07839.90423,W,195452.00,A,A*78

$GPRMC,195527.00,A,3552.08994,N,07839.90093,W,0.141,,261219,,,A*6F

$GPVTG,,T,,M,0.141,N,0.261,K,A*22

$GPGGA,195527.00,3552.08994,N,07839.90093,W,1,07,1.50,131.4,M,-34.4,M,,*62

$GPGSA,A,3,31,32,26,03,14,22,29,,,,,,2.49,1.50,1.99*02

$GPGSV,3,1,12,01,01,252,,03,36,301,12,04,14,307,07,14,62,089,31*7A

$GPGSV,3,2,12,16,37,195,20,22,45,273,20,23,09,307,,25,14,041,09*70

$GPGSV,3,3,12,26,66,181,22,29,16,075,32,31,61,026,31,32,36,114,34*7D

$GPGLL,3552.08973,N,07839.90423,W,195452.00,A,A*78

$GPRMC,195528.00,A,3552.08992,N,07839.90102,W,0.102,,261219,,,A*68

$GPVTG,,T,,M,0.102,N,0.189,K,A*20

$GPGGA,195528.00,3552.08992,N,07839.90102,W,1,07,1.50,131.2,M,-34.4,M,,*64

$GPGSA,A,3,31,32,26,03,14,22,29,,,,,,2.49,1.50,1.99*02

$GPGSV,3,1,12,01,01,252,,03,36,301,12,04,14,307,07,14,62,089,31*7A

$GPGSV,3,2,12,16,37,195,19,22,45,273,20,23,09,307,,25,14,041,08*7B

$GPGSV,3,3,12,26,66,181,22,29,16,075,32,31,61,026,31,32,36,114,34*7D

$GPGLL,3552.08973,N,07839.90423,W,195452.00,A,A*78

$GPRMC,195529.00,A,3552.08987,N,07839.90133,W,0.063,,261219,,,A*69

$GPVTG,,T,,M,0.063,N,0.117,K,A*21

$GPGGA,195529.00,3552.08987,N,07839.90133,W,1,07,1.50,130.7,M,-34.4,M,,*67

$GPGSA,A,3,31,32,26,03,14,22,29,,,,,,2.49,1.50,1.99*02

$GPGSV,3,1,12,01,01,252,,03,36,301,12,04,14,307,07,14,62,089,31*7A

$GPGSV,3,2,12,16,37,195,18,22,45,273,17,23,09,307,,25,14,041,08*7E

$GPGSV,3,3,12,26,66,181,22,29,16,075,32,31,61,026,31,32,36,114,34*7D

$GPGLL,3552.08973,N,07839.90423,W,195452.00,A,A*78

$GPRMC,195530.00,A,3552.08992,N,07839.90134,W,0.153,,261219,,,A*60

$GPVTG,,T,,M,0.153,N,0.283,K,A*2D

$GPGGA,195530.00,3552.08992,N,07839.90134,W,1,06,1.65,130.7,M,-34.4,M,,*6B

$GPGSA,A,3,31,32,26,03,14,29,,,,,,,2.65,1.65,2.07*0E

$GPGSV,3,1,12,01,01,252,,03,36,301,12,04,14,307,07,14,62,089,31*7A

$GPGSV,3,2,12,16,37,195,16,22,45,273,,23,09,307,,25,14,041,09*77

$GPGSV,3,3,12,26,66,181,22,29,16,075,33,31,61,026,31,32,36,114,33*7B

$GPGLL,3552.08973,N,07839.90423,W,195452.00,A,A*78

$GPRMC,195531.00,A,3552.08996,N,07839.90146,W,0.098,,261219,,,A*66

$GPVTG,,T,,M,0.098,N,0.181,K,A*2A

$GPGGA,195531.00,3552.08996,N,07839.90146,W,1,06,1.65,130.3,M,-34.4,M,,*6F

$GPGSA,A,3,31,32,26,03,14,29,,,,,,,2.65,1.65,2.07*0E

$GPGSV,3,1,12,01,01,252,,03,36,301,12,04,14,307,07,14,62,089,32*79

$GPGSV,3,2,12,16,37,195,15,22,45,273,17,23,09,307,,25,14,041,09*72

$GPGSV,3,3,12,26,66,181,22,29,16,075,32,31,61,026,31,32,36,114,33*7A

$GPGLL,3552.08973,N,07839.90423,W,195452.00,A,A*78

$GPRMC,195532.00,A,3552.08980,N,07839.90187,W,0.396,,261219,,,A*62

$GPVTG,,T,,M,0.396,N,0.734,K,A*2F

$GPGGA,195532.00,3552.08980,N,07839.90187,W,1,06,1.65,129.7,M,-34.4,M,,*6A

$GPGSA,A,3,31,32,26,03,14,29,,,,,,,2.65,1.65,2.07*0E

$GPGSV,3,1,12,01,01,252,,03,36,301,15,04,14,307,12,14,62,089,32*7A

$GPGSV,3,2,12,16,37,195,14,22,45,273,15,23,09,307,,25,14,041,12*7B

$GPGSV,3,3,12,26,66,181,20,29,16,075,32,31,61,026,31,32,36,114,33*78

$GPGLL,3552.08973,N,07839.90423,W,195452.00,A,A*78

$GPRMC,195533.00,A,3552.08965,N,07839.90243,W,0.384,,261219,,,A*60

$GPVTG,,T,,M,0.384,N,0.711,K,A*2B

$GPGGA,195533.00,3552.08965,N,07839.90243,W,1,06,1.65,128.7,M,-34.4,M,,*6A

$GPGSA,A,3,31,32,26,03,14,29,,,,,,,2.65,1.65,2.07*0E

$GPGSV,3,1,12,01,01,252,,03,36,301,15,04,14,307,12,14,62,089,32*7A

$GPGSV,3,2,12,16,37,195,14,22,45,273,15,23,09,307,,25,14,041,12*7B

$GPGSV,3,3,12,26,66,181,19,29,16,075,31,31,61,026,31,32,36,114,32*70

$GPGLL,3552.08973,N,07839.90423,W,195452.00,A,A*78

$GPRMC,195534.00,A,3552.08960,N,07839.90292,W,0.302,,261219,,,A*60

$GPVTG,,T,,M,0.302,N,0.558,K,A*2A

$GPGGA,195534.00,3552.08960,N,07839.90292,W,1,07,1.51,127.7,M,-34.4,M,,*6D

$GPGSA,A,3,31,25,32,26,03,14,29,,,,,,2.50,1.51,1.99*0C

$GPGSV,3,1,12,01,01,252,,03,36,301,15,04,14,307,12,14,62,089,32*7A

$GPGSV,3,2,12,16,37,195,12,22,45,273,14,23,09,307,,25,14,041,12*7C

$GPGSV,3,3,12,26,66,181,18,29,16,075,32,31,61,026,32,32,36,114,32*71

$GPGLL,3552.08973,N,07839.90423,W,195452.00,A,A*78

$GPRMC,195535.00,A,3552.08945,N,07839.90339,W,0.241,,261219,,,A*60

$GPVTG,,T,,M,0.241,N,0.446,K,A*22

$GPGGA,195535.00,3552.08945,N,07839.90339,W,1,08,1.36,126.7,M,-34.4,M,,*64

$GPGSA,A,3,31,25,32,26,03,14,22,29,,,,,2.34,1.36,1.90*06

$GPGSV,3,1,12,01,01,252,,03,36,301,16,04,15,308,12,14,62,089,32*77

$GPGSV,3,2,12,16,37,195,11,22,45,273,12,23,09,307,,25,14,041,12*79

$GPGSV,3,3,12,26,66,181,16,29,16,075,32,31,61,026,32,32,36,114,32*7F

$GPGLL,3552.08973,N,07839.90423,W,195452.00,A,A*78

$GPRMC,195536.00,A,3552.08938,N,07839.90361,W,0.269,,261219,,,A*6E

$GPVTG,,T,,M,0.269,N,0.497,K,A*24

$GPGGA,195536.00,3552.08938,N,07839.90361,W,1,08,1.36,126.1,M,-34.4,M,,*66

$GPGSA,A,3,31,25,32,26,03,14,22,29,,,,,2.34,1.36,1.90*06

$GPGSV,3,1,12,01,01,252,,03,36,301,16,04,15,308,12,14,62,089,32*77

$GPGSV,3,2,12,16,37,195,11,22,45,273,10,23,09,307,,25,14,041,12*7B

$GPGSV,3,3,12,26,66,181,16,29,16,075,31,31,61,026,32,32,36,114,31*7F

$GPGLL,3552.08973,N,07839.90423,W,195452.00,A,A*78

$GPRMC,195537.00,A,3552.08923,N,07839.90410,W,0.472,,261219,,,A*68

$GPVTG,,T,,M,0.472,N,0.874,K,A*29

$GPGGA,195537.00,3552.08923,N,07839.90410,W,1,07,1.51,125.1,M,-34.4,M,,*61

$GPGSA,A,3,31,25,32,26,03,14,29,,,,,,2.50,1.51,1.99*0C

$GPGSV,3,1,12,01,01,252,,03,36,301,16,04,15,308,12,14,62,089,31*74

$GPGSV,3,2,12,16,37,195,12,22,45,273,09,23,09,307,,25,14,041,12*70

$GPGSV,3,3,12,26,66,181,16,29,16,075,32,31,61,026,32,32,36,114,31*7C

$GPGLL,3552.08973,N,07839.90423,W,195452.00,A,A*78

$GPRMC,195538.00,A,3552.08901,N,07839.90452,W,0.393,,261219,,,A*69

$GPVTG,,T,,M,0.393,N,0.727,K,A*28

$GPGGA,195538.00,3552.08901,N,07839.90452,W,1,07,1.51,124.3,M,-34.4,M,,*6B

$GPGSA,A,3,31,25,32,26,03,14,29,,,,,,2.50,1.51,1.99*0C

$GPGSV,3,1,12,01,01,252,,03,36,301,16,04,15,308,07,14,62,089,31*70

$GPGSV,3,2,12,16,37,195,11,22,45,273,08,23,09,307,,25,14,041,08*79

$GPGSV,3,3,12,26,66,181,14,29,16,075,32,31,61,026,32,32,36,114,32*7D

$GPGLL,3552.08973,N,07839.90423,W,195452.00,A,A*78

$GPRMC,195539.00,A,3552.08875,N,07839.90512,W,0.427,,261219,,,A*67

$GPVTG,,T,,M,0.427,N,0.791,K,A*2D

$GPGGA,195539.00,3552.08875,N,07839.90512,W,1,07,1.51,123.4,M,-34.4,M,,*6D

$GPGSA,A,3,31,25,32,26,03,14,29,,,,,,2.50,1.51,1.99*0C

$GPGSV,3,1,12,01,01,252,,03,36,301,16,04,15,308,07,14,62,089,31*70

$GPGSV,3,2,12,16,37,195,09,22,45,273,08,23,09,307,,25,14,041,08*70

$GPGSV,3,3,12,26,66,181,13,29,16,075,32,31,61,026,32,32,36,114,31*79

$GPGLL,3552.08973,N,07839.90423,W,195452.00,A,A*78

$GPRMC,195540.00,A,3552.08853,N,07839.90564,W,0.507,,261219,,,A*6F

$GPVTG,,T,,M,0.507,N,0.939,K,A*22

$GPGGA,195540.00,3552.08853,N,07839.90564,W,1,07,1.51,122.5,M,-34.4,M,,*66

$GPGSA,A,3,31,25,32,26,03,14,29,,,,,,2.50,1.51,1.99*0C

$GPGSV,3,1,12,01,01,252,,03,36,301,16,04,15,308,07,14,62,089,32*73

$GPGSV,3,2,12,16,37,195,08,22,45,273,08,23,09,307,17,25,14,041,08*77

$GPGSV,3,3,12,26,66,181,12,29,16,075,33,31,61,026,32,32,36,114,32*7A

$GPGLL,3552.08973,N,07839.90423,W,195452.00,A,A*78

$GPRMC,195541.00,A,3552.08818,N,07839.90646,W,0.895,,261219,,,A*64

$GPVTG,,T,,M,0.895,N,1.658,K,A*2D

$GPGGA,195541.00,3552.08818,N,07839.90646,W,1,07,1.51,121.3,M,-34.4,M,,*6E

$GPGSA,A,3,31,25,32,26,03,14,29,,,,,,2.50,1.51,1.99*0C

$GPGSV,3,1,12,01,01,252,,03,36,301,16,04,15,308,07,14,62,089,32*73

$GPGSV,3,2,12,16,37,195,11,22,45,273,08,23,09,307,17,25,14,041,08*7F

$GPGSV,3,3,12,26,66,181,10,29,16,075,33,31,61,026,31,32,36,114,32*7B

$GPGLL,3552.08973,N,07839.90423,W,195452.00,A,A*78

$GPRMC,195542.00,A,3552.08782,N,07839.90739,W,1.079,,261219,,,A*69

$GPVTG,,T,,M,1.079,N,1.999,K,A*24

$GPGGA,195542.00,3552.08782,N,07839.90739,W,1,07,1.51,119.9,M,-34.4,M,,*69

$GPGSA,A,3,31,25,32,26,03,14,29,,,,,,2.50,1.51,1.99*0C

$GPGSV,3,1,12,01,01,252,,03,36,301,16,04,15,308,07,14,62,089,32*73

$GPGSV,3,2,12,16,37,195,12,22,45,273,08,23,09,307,16,25,14,041,08*7D

$GPGSV,3,3,12,26,66,181,10,29,16,075,32,31,61,026,31,32,36,114,32*7A

$GPGLL,3552.08973,N,07839.90423,W,195452.00,A,A*78

$GPRMC,195543.00,A,3552.08748,N,07839.90829,W,1.067,,261219,,,A*6F

$GPVTG,,T,,M,1.067,N,1.976,K,A*2A

$GPGGA,195543.00,3552.08748,N,07839.90829,W,1,07,1.51,118.7,M,-34.4,M,,*6F

$GPGSA,A,3,31,25,32,26,03,14,29,,,,,,2.50,1.51,1.99*0C

$GPGSV,3,1,12,01,01,252,,03,36,301,16,04,15,308,07,14,62,089,32*73

$GPGSV,3,2,12,16,37,195,12,22,45,273,08,23,09,307,16,25,14,041,08*7D

$GPGSV,3,3,12,26,66,181,10,29,16,075,32,31,61,026,31,32,36,114,32*7A

$GPGLL,3552.08973,N,07839.90423,W,195452.00,A,A*78

$GPRMC,195544.00,A,3552.08744,N,07839.90829,W,0.698,,261219,,,A*63

$GPVTG,,T,,M,0.698,N,1.293,K,A*2D

$GPGGA,195544.00,3552.08744,N,07839.90829,W,1,06,1.73,118.6,M,-34.4,M,,*64

$GPGSA,A,3,31,25,32,03,14,29,,,,,,,2.64,1.73,1.99*0F

$GPGSV,3,1,12,01,01,252,,03,36,301,18,04,15,308,09,14,62,089,31*70

$GPGSV,3,2,12,16,37,195,09,22,45,273,12,23,09,307,17,25,14,041,10*74

$GPGSV,3,3,12,26,66,181,17,29,16,075,32,31,61,026,30,32,36,114,32*7C

$GPGLL,3552.08973,N,07839.90423,W,195452.00,A,A*78

$GPRMC,195545.00,A,3552.08738,N,07839.90850,W,0.605,,261219,,,A*63

$GPVTG,,T,,M,0.605,N,1.120,K,A*22

$GPGGA,195545.00,3552.08738,N,07839.90850,W,1,06,1.73,118.2,M,-34.4,M,,*64

$GPGSA,A,3,31,25,32,03,14,29,,,,,,,2.64,1.73,1.99*0F

$GPGSV,3,1,12,01,01,252,,03,36,301,20,04,15,308,09,14,62,090,31*73

$GPGSV,3,2,12,16,37,195,08,22,45,273,12,23,09,307,17,25,14,041,10*75

$GPGSV,3,3,12,26,66,181,17,29,16,075,33,31,61,026,29,32,36,114,32*75

$GPGLL,3552.08973,N,07839.90423,W,195452.00,A,A*78

$GPRMC,195546.00,A,3552.08749,N,07839.90815,W,0.593,,261219,,,A*6B

$GPVTG,,T,,M,0.593,N,1.099,K,A*2D

$GPGGA,195546.00,3552.08749,N,07839.90815,W,1,07,1.48,118.6,M,-34.4,M,,*6D

$GPGSA,A,3,31,25,32,03,14,22,29,,,,,,2.42,1.48,1.92*08

$GPGSV,3,1,12,01,01,252,,03,36,301,21,04,15,308,09,14,62,090,31*72

$GPGSV,3,2,12,16,37,195,07,22,45,273,12,23,09,307,18,25,14,041,10*75

$GPGSV,3,3,12,26,66,181,16,29,16,075,33,31,61,026,29,32,36,114,31*77

$GPGLL,3552.08973,N,07839.90423,W,195452.00,A,A*78

$GPRMC,195547.00,A,3552.08757,N,07839.90800,W,0.466,,261219,,,A*6A

$GPVTG,,T,,M,0.466,N,0.864,K,A*2D

$GPGGA,195547.00,3552.08757,N,07839.90800,W,1,07,1.48,118.9,M,-34.4,M,,*68

$GPGSA,A,3,31,25,32,03,14,22,29,,,,,,2.42,1.48,1.92*08

$GPGSV,3,1,12,01,01,252,,03,36,301,22,04,15,308,09,14,62,090,31*71

$GPGSV,3,2,12,16,37,195,07,22,45,273,12,23,09,307,16,25,14,041,10*7B

$GPGSV,3,3,12,26,66,181,16,29,16,075,33,31,61,026,28,32,36,114,31*76

$GPGLL,3552.08973,N,07839.90423,W,195452.00,A,A*78

$GPRMC,195548.00,A,3552.08784,N,07839.90740,W,0.613,,261219,,,A*60

$GPVTG,,T,,M,0.613,N,1.135,K,A*21

$GPGGA,195548.00,3552.08784,N,07839.90740,W,1,08,1.36,119.7,M,-34.4,M,,*6B

$GPGSA,A,3,31,25,32,26,03,14,22,29,,,,,2.34,1.36,1.90*06

$GPGSV,3,1,12,01,01,252,,03,36,301,23,04,15,308,09,14,62,090,30*71

$GPGSV,3,2,12,16,37,195,07,22,45,273,12,23,09,307,15,25,14,041,10*78

$GPGSV,3,3,12,26,66,181,17,29,16,075,33,31,61,026,27,32,36,114,31*78

$GPGLL,3552.08973,N,07839.90423,W,195452.00,A,A*78

$GPRMC,195549.00,A,3552.08798,N,07839.90729,W,0.921,,261219,,,A*6D

$GPVTG,,T,,M,0.921,N,1.705,K,A*2A

$GPGGA,195549.00,3552.08798,N,07839.90729,W,1,08,1.36,119.8,M,-34.4,M,,*67

$GPGSA,A,3,31,25,32,26,03,14,22,29,,,,,2.34,1.36,1.90*06

$GPGSV,3,1,12,01,01,252,,03,36,301,23,04,15,308,09,14,62,090,30*71

$GPGSV,3,2,12,16,37,195,07,22,45,273,12,23,09,307,16,25,14,041,10*7B

$GPGSV,3,3,12,26,66,181,17,29,16,075,33,31,61,026,27,32,36,114,32*7B

$GPGLL,3552.08973,N,07839.90423,W,195452.00,A,A*78

$GPRMC,195550.00,A,3552.08805,N,07839.90729,W,1.078,,261219,,,A*6A

$GPVTG,,T,,M,1.078,N,1.996,K,A*2A

$GPGGA,195550.00,3552.08805,N,07839.90729,W,1,07,1.50,119.9,M,-34.4,M,,*6A

$GPGSA,A,3,31,32,26,03,14,22,29,,,,,,2.49,1.50,1.99*02

$GPGSV,3,1,12,01,01,252,,03,36,301,24,04,15,308,09,14,62,090,29*7E

$GPGSV,3,2,12,16,37,195,08,22,45,273,09,23,09,307,18,25,14,041,06*77

$GPGSV,3,3,12,26,66,181,17,29,16,075,32,31,61,026,27,32,36,114,33*7B

$GPGLL,3552.08973,N,07839.90423,W,195452.00,A,A*78

$GPRMC,195551.00,A,3552.08816,N,07839.90705,W,0.803,,261219,,,A*62

$GPVTG,,T,,M,0.803,N,1.488,K,A*2D

$GPGGA,195551.00,3552.08816,N,07839.90705,W,1,07,1.50,120.3,M,-34.4,M,,*67

$GPGSA,A,3,31,32,26,03,14,22,29,,,,,,2.49,1.50,1.99*02

$GPGSV,3,1,12,01,01,252,,03,36,301,23,04,15,308,09,14,62,090,30*71

$GPGSV,3,2,12,16,37,195,08,22,45,273,09,23,09,307,18,25,14,041,06*77

$GPGSV,3,3,12,26,66,181,16,29,16,075,32,31,61,026,28,32,36,114,33*75

$GPGLL,3552.08973,N,07839.90423,W,195452.00,A,A*78

$GPRMC,195552.00,A,3552.08825,N,07839.90700,W,0.781,,261219,,,A*61

$GPVTG,,T,,M,0.781,N,1.446,K,A*2A

$GPGGA,195552.00,3552.08825,N,07839.90700,W,1,07,1.50,120.4,M,-34.4,M,,*66

$GPGSA,A,3,31,32,26,03,14,22,29,,,,,,2.49,1.50,1.99*02

$GPGSV,3,1,12,01,01,252,,03,36,301,23,04,15,308,09,14,62,090,30*71

$GPGSV,3,2,12,16,37,195,08,22,45,272,09,23,09,307,17,25,14,041,06*79

$GPGSV,3,3,12,26,66,181,17,29,16,075,33,31,61,026,28,32,36,114,33*75

$GPGLL,3552.08973,N,07839.90423,W,195452.00,A,A*78

$GPRMC,195553.00,A,3552.08834,N,07839.90686,W,0.656,,261219,,,A*64

$GPVTG,,T,,M,0.656,N,1.215,K,A*21

$GPGGA,195553.00,3552.08834,N,07839.90686,W,1,07,1.50,120.6,M,-34.4,M,,*6A

$GPGSA,A,3,31,32,26,03,14,22,29,,,,,,2.49,1.50,1.99*02

$GPGSV,3,1,12,01,01,252,,03,36,301,23,04,15,308,09,14,62,090,30*71

$GPGSV,3,2,12,16,37,195,08,22,45,272,09,23,10,307,17,25,14,041,06*71

$GPGSV,3,3,12,26,66,181,16,29,16,075,33,31,61,026,29,32,36,114,33*75

$GPGLL,3552.08973,N,07839.90423,W,195452.00,A,A*78

$GPRMC,195554.00,A,3552.08841,N,07839.90672,W,0.692,,261219,,,A*62

$GPVTG,,T,,M,0.692,N,1.282,K,A*27

$GPGGA,195554.00,3552.08841,N,07839.90672,W,1,07,1.50,120.8,M,-34.4,M,,*6A

$GPGSA,A,3,31,32,26,03,14,22,29,,,,,,2.49,1.50,1.99*02

$GPGSV,3,1,12,01,01,252,,03,36,301,23,04,15,308,09,14,62,090,30*71

$GPGSV,3,2,12,16,37,195,08,22,45,272,09,23,10,307,15,25,14,041,06*73

$GPGSV,3,3,12,26,66,181,16,29,16,075,33,31,61,026,29,32,36,114,34*72

$GPGLL,3552.08973,N,07839.90423,W,195452.00,A,A*78

$GPRMC,195555.00,A,3552.08850,N,07839.90652,W,0.611,,261219,,,A*6A

$GPVTG,,T,,M,0.611,N,1.132,K,A*24

$GPGGA,195555.00,3552.08850,N,07839.90652,W,1,07,1.50,121.1,M,-34.4,M,,*61

$GPGSA,A,3,31,32,26,03,14,22,29,,,,,,2.49,1.50,1.99*02

$GPGSV,3,1,12,01,01,252,,03,36,301,24,04,15,308,09,14,62,090,30*76

$GPGSV,3,2,12,16,37,195,,22,45,272,09,23,10,307,14,25,14,040,*7D

$GPGSV,3,3,12,26,66,181,15,29,16,075,32,31,61,026,30,32,36,114,34*78

$GPGLL,3552.08973,N,07839.90423,W,195452.00,A,A*78

$GPRMC,195556.00,A,3552.08838,N,07839.90685,W,0.762,,261219,,,A*68

$GPVTG,,T,,M,0.762,N,1.412,K,A*26

$GPGGA,195556.00,3552.08838,N,07839.90685,W,1,07,1.50,120.7,M,-34.4,M,,*61

$GPGSA,A,3,31,32,26,03,14,22,29,,,,,,2.49,1.50,1.99*02

$GPGSV,3,1,12,01,01,252,,03,36,301,24,04,15,308,18,14,62,090,30*76

$GPGSV,3,2,12,16,37,195,,22,45,272,12,23,10,307,13,25,14,040,*70

$GPGSV,3,3,12,26,66,181,15,29,16,075,32,31,61,026,30,32,36,114,34*78

$GPGLL,3552.08973,N,07839.90423,W,195452.00,A,A*78

$GPRMC,195557.00,A,3552.08832,N,07839.90692,W,0.505,,261219,,,A*66

$GPVTG,,T,,M,0.505,N,0.935,K,A*2C

$GPGGA,195557.00,3552.08832,N,07839.90692,W,1,07,1.50,120.7,M,-34.4,M,,*6C

$GPGSA,A,3,31,32,26,03,14,22,29,,,,,,2.49,1.50,1.99*02

$GPGSV,3,1,12,01,01,252,,03,36,301,24,04,15,308,18,14,62,090,30*76

$GPGSV,3,2,12,16,37,195,18,22,45,272,12,23,10,307,09,25,14,040,*72

$GPGSV,3,3,12,26,66,181,14,29,16,075,32,31,61,026,31,32,36,114,34*78

$GPGLL,3552.08973,N,07839.90423,W,195452.00,A,A*78

$GPRMC,195558.00,A,3552.08825,N,07839.90700,W,0.531,,261219,,,A*62

$GPVTG,,T,,M,0.531,N,0.983,K,A*26

$GPGGA,195558.00,3552.08825,N,07839.90700,W,1,07,1.50,120.7,M,-34.4,M,,*6F

$GPGSA,A,3,31,32,26,03,14,22,29,,,,,,2.49,1.50,1.99*02

$GPGSV,3,1,12,01,01,252,,03,36,301,24,04,15,308,18,14,62,090,30*76

$GPGSV,3,2,12,16,37,195,19,22,45,272,12,23,10,307,09,25,14,040,*73

$GPGSV,3,3,12,26,66,181,13,29,16,075,33,31,61,026,30,32,36,114,34*7F

$GPGLL,3552.08973,N,07839.90423,W,195452.00,A,A*78

$GPRMC,195559.00,A,3552.08823,N,07839.90695,W,0.502,,261219,,,A*68

$GPVTG,,T,,M,0.502,N,0.929,K,A*26

$GPGGA,195559.00,3552.08823,N,07839.90695,W,1,07,1.50,120.9,M,-34.4,M,,*6B

$GPGSA,A,3,31,32,26,03,14,22,29,,,,,,2.49,1.50,1.99*02

$GPGSV,3,1,12,01,01,252,,03,36,301,24,04,15,308,18,14,62,090,30*76

$GPGSV,3,2,12,16,37,195,19,22,45,272,12,23,10,307,11,25,14,040,*7A

$GPGSV,3,3,12,26,66,181,14,29,16,075,33,31,61,026,31,32,36,114,34*79

$GPGLL,3552.08973,N,07839.90423,W,195452.00,A,A*78

$GPRMC,195600.00,A,3552.08810,N,07839.90701,W,0.468,,261219,,,A*66

$GPVTG,,T,,M,0.468,N,0.866,K,A*21

$GPGGA,195600.00,3552.08810,N,07839.90701,W,1,07,1.50,120.8,M,-34.4,M,,*69

$GPGSA,A,3,31,32,26,03,14,22,29,,,,,,2.49,1.50,1.99*02

$GPGSV,3,1,12,01,01,252,,03,36,301,24,04,15,308,18,14,62,090,30*76

$GPGSV,3,2,12,16,37,195,19,22,45,272,12,23,10,307,11,25,14,040,*7A

$GPGSV,3,3,12,26,66,181,14,29,16,075,33,31,61,026,31,32,36,114,35*78

$GPGLL,3552.08973,N,07839.90423,W,195452.00,A,A*78

$GPRMC,195601.00,A,3552.08805,N,07839.90691,W,0.180,,261219,,,A*68

$GPVTG,,T,,M,0.180,N,0.333,K,A*29

$GPGGA,195601.00,3552.08805,N,07839.90691,W,1,07,1.50,121.0,M,-34.4,M,,*6D

$GPGSA,A,3,31,32,26,03,14,22,29,,,,,,2.49,1.50,1.99*02

$GPGSV,3,1,12,01,01,252,,03,36,301,23,04,15,308,18,14,62,090,30*71

$GPGSV,3,2,12,16,37,195,20,22,45,272,12,23,10,307,12,25,14,040,*73

$GPGSV,3,3,12,26,66,181,15,29,16,075,33,31,61,026,31,32,36,114,35*79

$GPGLL,3552.08973,N,07839.90423,W,195452.00,A,A*78

$GPRMC,195602.00,A,3552.08794,N,07839.90712,W,0.122,,261219,,,A*6E

$GPVTG,,T,,M,0.122,N,0.226,K,A*24

$GPGGA,195602.00,3552.08794,N,07839.90712,W,1,07,1.50,120.8,M,-34.4,M,,*6A

$GPGSA,A,3,31,32,26,03,14,22,29,,,,,,2.49,1.50,1.99*02

$GPGSV,3,1,12,01,01,252,,03,36,301,23,04,15,308,19,14,62,090,30*70

$GPGSV,3,2,12,16,37,195,20,22,45,272,17,23,10,307,14,25,14,040,*70

$GPGSV,3,3,12,26,66,181,14,29,16,075,33,31,61,026,30,32,35,114,35*7A

$GPGLL,3552.08973,N,07839.90423,W,195452.00,A,A*78

$GPRMC,195603.00,A,3552.08781,N,07839.90744,W,0.247,,261219,,,A*68

$GPVTG,,T,,M,0.247,N,0.458,K,A*2B

$GPGGA,195603.00,3552.08781,N,07839.90744,W,1,07,1.50,120.4,M,-34.4,M,,*60

$GPGSA,A,3,31,32,26,03,14,22,29,,,,,,2.49,1.50,1.99*02

$GPGSV,3,1,12,01,01,252,,03,36,301,23,04,15,308,22,14,62,090,30*78

$GPGSV,3,2,12,16,37,195,21,22,45,272,17,23,10,307,14,25,14,040,*71

$GPGSV,3,3,12,26,66,181,14,29,16,075,32,31,61,026,30,32,35,114,35*7B

$GPGLL,3552.08973,N,07839.90423,W,195452.00,A,A*78

$GPRMC,195604.00,A,3552.08768,N,07839.90781,W,0.448,,261219,,,A*68

$GPVTG,,T,,M,0.448,N,0.830,K,A*20

$GPGGA,195604.00,3552.08768,N,07839.90781,W,1,07,1.50,120.0,M,-34.4,M,,*6D

$GPGSA,A,3,31,32,26,03,14,22,29,,,,,,2.49,1.50,1.99*02

$GPGSV,3,1,12,01,01,252,,03,36,301,23,04,15,308,22,14,62,090,30*78

$GPGSV,3,2,12,16,37,195,21,22,45,272,17,23,10,307,14,25,14,040,*71

$GPGSV,3,3,12,26,66,181,15,29,16,075,32,31,61,026,30,32,35,114,35*7A

$GPGLL,3552.08973,N,07839.90423,W,195452.00,A,A*78

$GPRMC,195605.00,A,3552.08766,N,07839.90779,W,0.056,,261219,,,A*6B

$GPVTG,,T,,M,0.056,N,0.104,K,A*25

$GPGGA,195605.00,3552.08766,N,07839.90779,W,1,07,1.50,120.2,M,-34.4,M,,*67

$GPGSA,A,3,31,32,26,03,14,22,29,,,,,,2.49,1.50,1.99*02

$GPGSV,3,1,12,01,01,252,,03,36,301,23,04,15,308,22,14,62,090,29*70

$GPGSV,3,2,12,16,37,195,20,22,45,272,17,23,10,307,15,25,14,040,*71

$GPGSV,3,3,12,26,66,181,14,29,16,075,32,31,61,026,30,32,35,114,35*7B

$GPGLL,3552.08973,N,07839.90423,W,195452.00,A,A*78

$GPRMC,195606.00,A,3552.08764,N,07839.90791,W,0.020,,261219,,,A*6D

$GPVTG,,T,,M,0.020,N,0.036,K,A*24

$GPGGA,195606.00,3552.08764,N,07839.90791,W,1,07,1.50,120.1,M,-34.4,M,,*63

$GPGSA,A,3,31,32,26,03,14,22,29,,,,,,2.49,1.50,1.99*02

$GPGSV,3,1,12,01,01,252,,03,36,301,22,04,15,308,22,14,62,090,29*71

$GPGSV,3,2,12,16,37,195,20,22,45,272,17,23,10,307,15,25,14,040,*71

$GPGSV,3,3,12,26,66,181,14,29,16,075,31,31,61,026,29,32,35,114,35*70

$GPGLL,3552.08973,N,07839.90423,W,195452.00,A,A*78

$GPRMC,195607.00,A,3552.08751,N,07839.90842,W,0.244,,261219,,,A*6B

$GPVTG,,T,,M,0.244,N,0.452,K,A*22

$GPGGA,195607.00,3552.08751,N,07839.90842,W,1,07,1.50,119.2,M,-34.4,M,,*6C

$GPGSA,A,3,31,32,26,03,14,22,29,,,,,,2.49,1.50,1.99*02

$GPGSV,3,1,12,01,01,252,,03,36,301,22,04,15,308,22,14,62,090,29*71

$GPGSV,3,2,12,16,37,195,20,22,45,272,17,23,10,307,16,25,14,040,*72

$GPGSV,3,3,12,26,66,181,13,29,16,075,31,31,61,026,29,32,35,114,35*77

$GPGLL,3552.08973,N,07839.90423,W,195452.00,A,A*78

$GPRMC,195608.00,A,3552.08751,N,07839.90853,W,0.228,,261219,,,A*6E

$GPVTG,,T,,M,0.228,N,0.422,K,A*2F

$GPGGA,195608.00,3552.08751,N,07839.90853,W,1,07,1.50,119.1,M,-34.4,M,,*60

$GPGSA,A,3,31,32,26,03,14,22,29,,,,,,2.49,1.50,1.99*02

$GPGSV,3,1,12,01,01,252,,03,36,301,22,04,15,308,22,14,62,090,28*70

$GPGSV,3,2,12,16,37,195,20,22,45,272,16,23,10,307,17,25,14,040,*72

$GPGSV,3,3,12,26,66,181,13,29,16,075,30,31,61,026,29,32,35,114,35*76

$GPGLL,3552.08973,N,07839.90423,W,195452.00,A,A*78

$GPRMC,195609.00,A,3552.08740,N,07839.90904,W,0.358,,261219,,,A*6A

$GPVTG,,T,,M,0.358,N,0.663,K,A*2E

$GPGGA,195609.00,3552.08740,N,07839.90904,W,1,07,1.50,118.5,M,-34.4,M,,*67

$GPGSA,A,3,31,32,26,03,14,22,29,,,,,,2.49,1.50,1.99*02

$GPGSV,3,1,12,01,01,252,,03,36,301,22,04,15,308,21,14,62,090,28*73

$GPGSV,3,2,12,16,37,195,20,22,45,272,20,23,10,307,17,25,14,040,*77

$GPGSV,3,3,12,26,66,181,13,29,16,075,30,31,61,026,29,32,35,114,35*76

$GPGLL,3552.08973,N,07839.90423,W,195452.00,A,A*78

$GPRMC,195610.00,A,3552.08729,N,07839.90953,W,0.325,,261219,,,A*65

$GPVTG,,T,,M,0.325,N,0.601,K,A*20

$GPGGA,195610.00,3552.08729,N,07839.90953,W,1,07,1.50,118.0,M,-34.4,M,,*67

$GPGSA,A,3,31,32,26,03,14,22,29,,,,,,2.49,1.50,1.99*02

$GPGSV,3,1,12,01,01,252,,03,36,301,22,04,15,308,21,14,62,090,28*73

$GPGSV,3,2,12,16,37,195,19,22,45,272,22,23,10,307,16,25,14,040,*7E

$GPGSV,3,3,12,26,66,181,12,29,16,075,30,31,61,026,29,32,35,114,35*77

$GPGLL,3552.08973,N,07839.90423,W,195452.00,A,A*78

$GPRMC,195611.00,A,3552.08731,N,07839.90969,W,0.070,,261219,,,A*67

$GPVTG,,T,,M,0.070,N,0.131,K,A*27

$GPGGA,195611.00,3552.08731,N,07839.90969,W,1,07,1.50,117.8,M,-34.4,M,,*61

$GPGSA,A,3,31,32,26,03,14,22,29,,,,,,2.49,1.50,1.99*02

$GPGSV,3,1,12,01,01,252,,03,36,301,22,04,15,308,21,14,62,090,28*73

$GPGSV,3,2,12,16,37,195,19,22,45,272,22,23,10,307,16,25,14,040,*7E

$GPGSV,3,3,12,26,66,181,10,29,16,075,30,31,61,026,29,32,35,114,35*75

$GPGLL,3552.08973,N,07839.90423,W,195452.00,A,A*78

$GPRMC,195612.00,A,3552.08731,N,07839.91003,W,0.203,,261219,,,A*66

$GPVTG,,T,,M,0.203,N,0.376,K,A*20

$GPGGA,195612.00,3552.08731,N,07839.91003,W,1,06,1.78,117.4,M,-34.4,M,,*61

$GPGSA,A,3,31,32,03,14,22,29,,,,,,,2.73,1.78,2.08*0E

$GPGSV,3,1,12,01,01,252,,03,36,301,23,04,15,308,21,14,62,090,27*7D

$GPGSV,3,2,12,16,37,195,18,22,45,272,23,23,10,307,17,25,14,040,13*7D

$GPGSV,3,3,12,26,66,181,09,29,16,075,30,31,61,026,28,32,35,114,35*7C

$GPGLL,3552.08973,N,07839.90423,W,195452.00,A,A*78

$GPRMC,195613.00,A,3552.08729,N,07839.91029,W,0.383,,261219,,,A*6F

$GPVTG,,T,,M,0.383,N,0.710,K,A*2D

$GPGGA,195613.00,3552.08729,N,07839.91029,W,1,06,1.78,117.1,M,-34.4,M,,*64

$GPGSA,A,3,31,32,03,14,22,29,,,,,,,2.73,1.78,2.08*0E

$GPGSV,3,1,12,01,01,252,,03,36,301,23,04,15,308,21,14,62,090,27*7D

$GPGSV,3,2,12,16,37,195,18,22,45,272,23,23,10,307,18,25,14,040,11*70

$GPGSV,3,3,12,26,66,181,08,29,16,075,30,31,61,026,28,32,35,114,35*7D

$GPGLL,3552.08973,N,07839.90423,W,195452.00,A,A*78

$GPRMC,195614.00,A,3552.08732,N,07839.91035,W,0.368,,261219,,,A*6A

$GPVTG,,T,,M,0.368,N,0.682,K,A*22

$GPGGA,195614.00,3552.08732,N,07839.91035,W,1,07,1.50,117.1,M,-34.4,M,,*6F

$GPGSA,A,3,31,32,26,03,14,22,29,,,,,,2.49,1.50,1.99*02

$GPGSV,3,1,12,01,01,252,,03,36,301,23,04,15,308,21,14,62,090,27*7D

$GPGSV,3,2,12,16,37,195,18,22,45,272,23,23,10,307,18,25,14,040,09*79

$GPGSV,3,3,12,26,66,181,08,29,16,075,30,31,61,026,27,32,35,114,35*72

$GPGLL,3552.08973,N,07839.90423,W,195452.00,A,A*78

$GPRMC,195615.00,A,3552.08735,N,07839.91032,W,0.324,,261219,,,A*63

$GPVTG,,T,,M,0.324,N,0.601,K,A*21

$GPGGA,195615.00,3552.08735,N,07839.91032,W,1,07,1.50,117.3,M,-34.4,M,,*6C

$GPGSA,A,3,31,32,26,03,14,22,29,,,,,,2.49,1.50,1.99*02

$GPGSV,3,1,12,01,01,252,,03,36,301,22,04,15,308,20,14,62,090,27*7D

$GPGSV,3,2,12,16,37,195,19,22,45,272,24,23,10,307,18,25,14,040,09*7F

$GPGSV,3,3,12,26,66,181,08,29,16,075,30,31,61,026,27,32,35,114,35*72

$GPGLL,3552.08973,N,07839.90423,W,195452.00,A,A*78

$GPRMC,195616.00,A,3552.08749,N,07839.91005,W,0.028,,261219,,,A*60

$GPVTG,,T,,M,0.028,N,0.052,K,A*2E

$GPGGA,195616.00,3552.08749,N,07839.91005,W,1,06,1.78,117.6,M,-34.4,M,,*6E

$GPGSA,A,3,31,32,03,14,22,29,,,,,,,2.73,1.78,2.08*0E

$GPGSV,3,1,12,01,01,252,,03,36,301,21,04,15,308,19,14,62,090,27*74

$GPGSV,3,2,12,16,37,195,19,22,45,272,24,23,10,307,18,25,14,040,09*7F

$GPGSV,3,3,12,26,66,181,,29,16,075,31,31,61,026,27,32,35,114,35*7B

$GPGLL,3552.08973,N,07839.90423,W,195452.00,A,A*78

$GPRMC,195617.00,A,3552.08747,N,07839.90999,W,0.258,,261219,,,A*67

$GPVTG,,T,,M,0.258,N,0.478,K,A*27

$GPGGA,195617.00,3552.08747,N,07839.90999,W,1,07,1.48,118.0,M,-34.4,M,,*67

$GPGSA,A,3,31,25,32,03,14,22,29,,,,,,2.42,1.48,1.92*08

$GPGSV,3,1,12,01,01,252,,03,36,300,21,04,15,308,18,14,62,090,27*74

$GPGSV,3,2,12,16,37,195,19,22,45,272,24,23,10,307,17,25,14,040,11*79

$GPGSV,3,3,12,26,66,181,,29,16,075,31,31,61,026,27,32,35,114,35*7B

$GPGLL,3552.08973,N,07839.90423,W,195452.00,A,A*78

$GPRMC,195618.00,A,3552.08764,N,07839.90964,W,0.091,,261219,,,A*6C

$GPVTG,,T,,M,0.091,N,0.169,K,A*25

$GPGGA,195618.00,3552.08764,N,07839.90964,W,1,07,1.78,118.6,M,-34.4,M,,*6E

$GPGSA,A,3,31,25,32,03,14,22,29,,,,,,2.73,1.78,2.08*09

$GPGSV,3,1,12,01,01,252,,03,36,300,20,04,15,308,18,14,62,090,27*75

$GPGSV,3,2,12,16,37,195,19,22,45,272,24,23,10,307,17,25,14,040,13*7B

$GPGSV,3,3,12,26,66,181,,29,16,075,31,31,61,026,27,32,35,114,35*7B

$GPGLL,3552.08973,N,07839.90423,W,195452.00,A,A*78

$GPRMC,195619.00,A,3552.08763,N,07839.90948,W,0.167,,261219,,,A*6C

$GPVTG,,T,,M,0.167,N,0.309,K,A*29

$GPGGA,195619.00,3552.08763,N,07839.90948,W,1,07,1.47,119.3,M,-34.4,M,,*6E

$GPGSA,A,3,31,25,32,03,14,22,29,,,,,,2.42,1.47,1.92*07

$GPGSV,3,1,12,01,01,252,,03,36,300,19,04,15,308,18,14,62,090,27*7F

$GPGSV,3,2,12,16,37,195,19,22,45,272,23,23,10,307,17,25,14,040,13*7C

$GPGSV,3,3,12,26,66,181,,29,16,075,31,31,61,026,28,32,35,114,35*74

$GPGLL,3552.08973,N,07839.90423,W,195452.00,A,A*78

$GPRMC,195620.00,A,3552.08773,N,07839.90936,W,0.387,,261219,,,A*62

$GPVTG,,T,,M,0.387,N,0.716,K,A*2F

$GPGGA,195620.00,3552.08773,N,07839.90936,W,1,07,1.78,119.4,M,-34.4,M,,*67

$GPGSA,A,3,31,25,32,03,14,22,29,,,,,,2.73,1.78,2.08*09

$GPGSV,3,1,12,01,01,252,,03,36,300,18,04,15,308,18,14,62,090,27*7E

$GPGSV,3,2,12,16,37,195,19,22,45,272,23,23,10,307,18,25,14,040,14*74

$GPGSV,3,3,12,26,66,181,,29,16,075,31,31,61,026,28,32,35,114,34*75

$GPGLL,3552.08973,N,07839.90423,W,195452.00,A,A*78

$GPRMC,195621.00,A,3552.08762,N,07839.90946,W,0.029,,261219,,,A*63

$GPVTG,,T,,M,0.029,N,0.053,K,A*2E

$GPGGA,195621.00,3552.08762,N,07839.90946,W,1,07,1.47,119.5,M,-34.4,M,,*6C

$GPGSA,A,3,31,25,32,03,14,22,29,,,,,,2.42,1.47,1.92*07

$GPGSV,3,1,12,01,01,252,,03,36,300,17,04,15,308,17,14,62,090,27*7E

$GPGSV,3,2,12,16,37,195,18,22,45,272,22,23,10,307,18,25,14,040,15*75

$GPGSV,3,3,12,26,66,181,,29,16,075,31,31,61,026,29,32,35,114,34*74

$GPGLL,3552.08973,N,07839.90423,W,195452.00,A,A*78

